[
  {
    "id": "ap-vsk-001",
    "branchCode": "AP-VSK-01",
    "name": "Visakhapatnam Indane",
    "location": "Visakhapatnam",
    "distance": 4.2,
    "price": 895,
    "availability": true,
    "stockCount": 45,
    "lastUpdated": "2026-03-25T08:00:00.000Z",
    "latitude": 17.6848,
    "longitude": 83.2175,
    "state": "Andhra Pradesh",
    "city": "Visakhapatnam"
  },
  {
    "id": "ap-vij-002",
    "branchCode": "AP-VIJ-02",
    "name": "Vijayawada Bharat Gas",
    "location": "Vijayawada",
    "distance": 2.1,
    "price": 890,
    "availability": true,
    "stockCount": 30,
    "lastUpdated": "2026-03-25T08:15:00.000Z",
    "latitude": 16.5012,
    "longitude": 80.65,
    "state": "Andhra Pradesh",
    "city": "Vijayawada"
  },
  {
    "id": "ap-gun-003",
    "branchCode": "AP-GUN-03",
    "name": "Guntur HP Gas Agency",
    "location": "Guntur",
    "distance": 5.5,
    "price": 895,
    "availability": false,
    "stockCount": 0,
    "lastUpdated": "2026-03-25T07:30:00.000Z",
    "latitude": 16.3057,
    "longitude": 80.4315,
    "state": "Andhra Pradesh",
    "city": "Guntur"
  },
  {
    "id": "ap-nel-004",
    "branchCode": "AP-NEL-04",
    "name": "Nellore Gas Suppliers",
    "location": "Nellore",
    "distance": 1.8,
    "price": 890,
    "availability": true,
    "stockCount": 12,
    "lastUpdated": "2026-03-25T09:00:00.000Z",
    "latitude": 14.4526,
    "longitude": 79.9805,
    "state": "Andhra Pradesh",
    "city": "Nellore"
  },
  {
    "id": "ap-tir-005",
    "branchCode": "AP-TIR-05",
    "name": "Tirupati Safe Gas",
    "location": "Tirupati",
    "distance": 6.3,
    "price": 900,
    "availability": true,
    "stockCount": 55,
    "lastUpdated": "2026-03-25T08:45:00.000Z",
    "latitude": 13.6378,
    "longitude": 79.4272,
    "state": "Andhra Pradesh",
    "city": "Tirupati"
  },
  {
    "id": "ar-ita-001",
    "branchCode": "AR-ITA-01",
    "name": "Itanagar Indane Service",
    "location": "Itanagar",
    "distance": 3,
    "price": 950,
    "availability": true,
    "stockCount": 18,
    "lastUpdated": "2026-03-25T06:00:00.000Z",
    "latitude": 27.0924,
    "longitude": 93.6043,
    "state": "Arunachal Pradesh",
    "city": "Itanagar"
  },
  {
    "id": "ar-nah-002",
    "branchCode": "AR-NAH-02",
    "name": "Naharlagun Gas Point",
    "location": "Naharlagun",
    "distance": 4.5,
    "price": 950,
    "availability": true,
    "stockCount": 22,
    "lastUpdated": "2026-03-25T06:10:00.000Z",
    "latitude": 27.1007,
    "longitude": 93.6952,
    "state": "Arunachal Pradesh",
    "city": "Naharlagun"
  },
  {
    "id": "ar-pas-003",
    "branchCode": "AR-PAS-03",
    "name": "Pasighat HP Center",
    "location": "Pasighat",
    "distance": 2.2,
    "price": 955,
    "availability": true,
    "stockCount": 10,
    "lastUpdated": "2026-03-25T06:20:00.000Z",
    "latitude": 28.0691,
    "longitude": 95.3318,
    "state": "Arunachal Pradesh",
    "city": "Pasighat"
  },
  {
    "id": "ar-roi-004",
    "branchCode": "AR-ROI-04",
    "name": "Roing Gas Distributors",
    "location": "Roing",
    "distance": 7.1,
    "price": 960,
    "availability": false,
    "stockCount": 0,
    "lastUpdated": "2026-03-25T06:30:00.000Z",
    "latitude": 28.1484,
    "longitude": 95.8534,
    "state": "Arunachal Pradesh",
    "city": "Roing"
  },
  {
    "id": "ar-zir-005",
    "branchCode": "AR-ZIR-05",
    "name": "Ziro Valley Gas",
    "location": "Ziro",
    "distance": 5,
    "price": 965,
    "availability": true,
    "stockCount": 8,
    "lastUpdated": "2026-03-25T06:40:00.000Z",
    "latitude": 27.6046,
    "longitude": 93.8217,
    "state": "Arunachal Pradesh",
    "city": "Ziro"
  },
  {
    "id": "as-guw-001",
    "branchCode": "AS-GUW-01",
    "name": "Guwahati Central Gas",
    "location": "Guwahati",
    "distance": 2.5,
    "price": 905,
    "availability": true,
    "stockCount": 60,
    "lastUpdated": "2026-03-25T09:00:00.000Z",
    "latitude": 26.1425,
    "longitude": 91.7322,
    "state": "Assam",
    "city": "Guwahati"
  },
  {
    "id": "as-dib-002",
    "branchCode": "AS-DIB-02",
    "name": "Dibrugarh Indane",
    "location": "Dibrugarh",
    "distance": 3.8,
    "price": 910,
    "availability": true,
    "stockCount": 35,
    "lastUpdated": "2026-03-25T09:15:00.000Z",
    "latitude": 27.4628,
    "longitude": 94.902,
    "state": "Assam",
    "city": "Dibrugarh"
  },
  {
    "id": "as-sil-003",
    "branchCode": "AS-SIL-03",
    "name": "Silchar Gas Agency",
    "location": "Silchar",
    "distance": 4.1,
    "price": 905,
    "availability": true,
    "stockCount": 20,
    "lastUpdated": "2026-03-25T09:30:00.000Z",
    "latitude": 24.8353,
    "longitude": 92.7829,
    "state": "Assam",
    "city": "Silchar"
  },
  {
    "id": "as-jor-004",
    "branchCode": "AS-JOR-04",
    "name": "Jorhat HP Gas",
    "location": "Jorhat",
    "distance": 1.5,
    "price": 910,
    "availability": false,
    "stockCount": 0,
    "lastUpdated": "2026-03-25T09:45:00.000Z",
    "latitude": 26.7489,
    "longitude": 94.2137,
    "state": "Assam",
    "city": "Jorhat"
  },
  {
    "id": "as-tez-005",
    "branchCode": "AS-TEZ-05",
    "name": "Tezpur Bharat Gas",
    "location": "Tezpur",
    "distance": 5.2,
    "price": 908,
    "availability": true,
    "stockCount": 42,
    "lastUpdated": "2026-03-25T10:00:00.000Z",
    "latitude": 26.6498,
    "longitude": 92.7946,
    "state": "Assam",
    "city": "Tezpur"
  },
  {
    "id": "br-pat-001",
    "branchCode": "BR-PAT-01",
    "name": "Patna Gas World",
    "location": "Patna",
    "distance": 1.2,
    "price": 920,
    "availability": true,
    "stockCount": 80,
    "lastUpdated": "2026-03-25T08:00:00.000Z",
    "latitude": 25.5851,
    "longitude": 85.1396,
    "state": "Bihar",
    "city": "Patna"
  },
  {
    "id": "br-gay-002",
    "branchCode": "BR-GAY-02",
    "name": "Gaya Indane Agency",
    "location": "Gaya",
    "distance": 3.4,
    "price": 925,
    "availability": true,
    "stockCount": 25,
    "lastUpdated": "2026-03-25T08:20:00.000Z",
    "latitude": 24.7894,
    "longitude": 85.0072,
    "state": "Bihar",
    "city": "Gaya"
  },
  {
    "id": "br-bha-003",
    "branchCode": "BR-BHA-03",
    "name": "Bhagalpur HP Center",
    "location": "Bhagalpur",
    "distance": 2.8,
    "price": 920,
    "availability": true,
    "stockCount": 40,
    "lastUpdated": "2026-03-25T08:40:00.000Z",
    "latitude": 25.2445,
    "longitude": 86.9812,
    "state": "Bihar",
    "city": "Bhagalpur"
  },
  {
    "id": "br-muz-004",
    "branchCode": "BR-MUZ-04",
    "name": "Muzaffarpur Gas Co",
    "location": "Muzaffarpur",
    "distance": 4.6,
    "price": 930,
    "availability": false,
    "stockCount": 0,
    "lastUpdated": "2026-03-25T09:00:00.000Z",
    "latitude": 26.1219,
    "longitude": 85.3657,
    "state": "Bihar",
    "city": "Muzaffarpur"
  },
  {
    "id": "br-dar-005",
    "branchCode": "BR-DAR-05",
    "name": "Darbhanga Bharat Gas",
    "location": "Darbhanga",
    "distance": 5.1,
    "price": 925,
    "availability": true,
    "stockCount": 15,
    "lastUpdated": "2026-03-25T09:20:00.000Z",
    "latitude": 26.1552,
    "longitude": 85.8878,
    "state": "Bihar",
    "city": "Darbhanga"
  },
  {
    "id": "cg-rai-001",
    "branchCode": "CG-RAI-01",
    "name": "Raipur City Gas",
    "location": "Raipur",
    "distance": 3.2,
    "price": 915,
    "availability": true,
    "stockCount": 50,
    "lastUpdated": "2026-03-25T07:00:00.000Z",
    "latitude": 21.2424,
    "longitude": 81.6306,
    "state": "Chhattisgarh",
    "city": "Raipur"
  },
  {
    "id": "cg-bhi-002",
    "branchCode": "CG-BHI-02",
    "name": "Bhilai Indane",
    "location": "Bhilai",
    "distance": 2.5,
    "price": 915,
    "availability": true,
    "stockCount": 35,
    "lastUpdated": "2026-03-25T07:15:00.000Z",
    "latitude": 21.1968,
    "longitude": 81.3469,
    "state": "Chhattisgarh",
    "city": "Bhilai"
  },
  {
    "id": "cg-bil-003",
    "branchCode": "CG-BIL-03",
    "name": "Bilaspur HP Point",
    "location": "Bilaspur",
    "distance": 4,
    "price": 920,
    "availability": false,
    "stockCount": 0,
    "lastUpdated": "2026-03-25T07:30:00.000Z",
    "latitude": 22.0786,
    "longitude": 82.1391,
    "state": "Chhattisgarh",
    "city": "Bilaspur"
  },
  {
    "id": "cg-kor-004",
    "branchCode": "CG-KOR-04",
    "name": "Korba Energy Gas",
    "location": "Korba",
    "distance": 6.2,
    "price": 918,
    "availability": true,
    "stockCount": 28,
    "lastUpdated": "2026-03-25T07:45:00.000Z",
    "latitude": 22.3515,
    "longitude": 82.7531,
    "state": "Chhattisgarh",
    "city": "Korba"
  },
  {
    "id": "cg-rag-005",
    "branchCode": "CG-RAG-05",
    "name": "Raigarh Bharat Gas",
    "location": "Raigarh",
    "distance": 1.9,
    "price": 922,
    "availability": true,
    "stockCount": 42,
    "lastUpdated": "2026-03-25T08:00:00.000Z",
    "latitude": 21.8874,
    "longitude": 83.401,
    "state": "Chhattisgarh",
    "city": "Raigarh"
  },
  {
    "id": "ga-pan-001",
    "branchCode": "GA-PAN-01",
    "name": "Panaji Coastal Gas",
    "location": "Panaji",
    "distance": 2,
    "price": 880,
    "availability": true,
    "stockCount": 40,
    "lastUpdated": "2026-03-25T08:00:00.000Z",
    "latitude": 15.4809,
    "longitude": 73.8178,
    "state": "Goa",
    "city": "Panaji"
  },
  {
    "id": "ga-mar-002",
    "branchCode": "GA-MAR-02",
    "name": "Margao Indane",
    "location": "Margao",
    "distance": 3.1,
    "price": 880,
    "availability": true,
    "stockCount": 25,
    "lastUpdated": "2026-03-25T08:15:00.000Z",
    "latitude": 15.2872,
    "longitude": 73.9932,
    "state": "Goa",
    "city": "Margao"
  },
  {
    "id": "ga-vas-003",
    "branchCode": "GA-VAS-03",
    "name": "Vasco HP Agency",
    "location": "Vasco",
    "distance": 1.5,
    "price": 885,
    "availability": true,
    "stockCount": 30,
    "lastUpdated": "2026-03-25T08:30:00.000Z",
    "latitude": 15.3988,
    "longitude": 73.8156,
    "state": "Goa",
    "city": "Vasco"
  },
  {
    "id": "ga-map-004",
    "branchCode": "GA-MAP-04",
    "name": "Mapusa Bharat Gas",
    "location": "Mapusa",
    "distance": 4.2,
    "price": 882,
    "availability": false,
    "stockCount": 0,
    "lastUpdated": "2026-03-25T08:45:00.000Z",
    "latitude": 15.588,
    "longitude": 73.8089,
    "state": "Goa",
    "city": "Mapusa"
  },
  {
    "id": "ga-pon-005",
    "branchCode": "GA-PON-05",
    "name": "Ponda Gas Services",
    "location": "Ponda",
    "distance": 5,
    "price": 885,
    "availability": true,
    "stockCount": 15,
    "lastUpdated": "2026-03-25T09:00:00.000Z",
    "latitude": 15.3956,
    "longitude": 74.0098,
    "state": "Goa",
    "city": "Ponda"
  },
  {
    "id": "gj-ahm-001",
    "branchCode": "GJ-AHM-01",
    "name": "Ahmedabad Metro Gas",
    "location": "Ahmedabad",
    "distance": 1.8,
    "price": 870,
    "availability": true,
    "stockCount": 120,
    "lastUpdated": "2026-03-25T09:00:00.000Z",
    "latitude": 23.0255,
    "longitude": 72.5714,
    "state": "Gujarat",
    "city": "Ahmedabad"
  },
  {
    "id": "gj-sur-002",
    "branchCode": "GJ-SUR-02",
    "name": "Surat Indane Depot",
    "location": "Surat",
    "distance": 2.4,
    "price": 870,
    "availability": true,
    "stockCount": 95,
    "lastUpdated": "2026-03-25T09:10:00.000Z",
    "latitude": 21.1762,
    "longitude": 72.8401,
    "state": "Gujarat",
    "city": "Surat"
  },
  {
    "id": "gj-vad-003",
    "branchCode": "GJ-VAD-03",
    "name": "Vadodara HP Point",
    "location": "Vadodara",
    "distance": 3.7,
    "price": 875,
    "availability": false,
    "stockCount": 0,
    "lastUpdated": "2026-03-25T09:20:00.000Z",
    "latitude": 22.2972,
    "longitude": 73.1792,
    "state": "Gujarat",
    "city": "Vadodara"
  },
  {
    "id": "gj-raj-004",
    "branchCode": "GJ-RAJ-04",
    "name": "Rajkot Bharat Gas",
    "location": "Rajkot",
    "distance": 4.1,
    "price": 872,
    "availability": true,
    "stockCount": 50,
    "lastUpdated": "2026-03-25T09:30:00.000Z",
    "latitude": 22.2979,
    "longitude": 70.8112,
    "state": "Gujarat",
    "city": "Rajkot"
  },
  {
    "id": "gj-bha-005",
    "branchCode": "GJ-BHA-05",
    "name": "Bhavnagar Gas Hub",
    "location": "Bhavnagar",
    "distance": 2.9,
    "price": 875,
    "availability": true,
    "stockCount": 35,
    "lastUpdated": "2026-03-25T09:40:00.000Z",
    "latitude": 21.7695,
    "longitude": 72.1449,
    "state": "Gujarat",
    "city": "Bhavnagar"
  },
  {
    "id": "hr-gur-001",
    "branchCode": "HR-GUR-01",
    "name": "Gurugram Cyber Gas",
    "location": "Gurugram",
    "distance": 2.2,
    "price": 895,
    "availability": true,
    "stockCount": 75,
    "lastUpdated": "2026-03-25T10:00:00.000Z",
    "latitude": 28.4635,
    "longitude": 77.0256,
    "state": "Haryana",
    "city": "Gurugram"
  },
  {
    "id": "hr-far-002",
    "branchCode": "HR-FAR-02",
    "name": "Faridabad Indane",
    "location": "Faridabad",
    "distance": 3.5,
    "price": 890,
    "availability": true,
    "stockCount": 45,
    "lastUpdated": "2026-03-25T10:15:00.000Z",
    "latitude": 28.4019,
    "longitude": 77.3188,
    "state": "Haryana",
    "city": "Faridabad"
  },
  {
    "id": "hr-pan-003",
    "branchCode": "HR-PAN-03",
    "name": "Panipat HP Agency",
    "location": "Panipat",
    "distance": 4.8,
    "price": 895,
    "availability": true,
    "stockCount": 20,
    "lastUpdated": "2026-03-25T10:30:00.000Z",
    "latitude": 29.3909,
    "longitude": 76.9675,
    "state": "Haryana",
    "city": "Panipat"
  },
  {
    "id": "hr-amb-004",
    "branchCode": "HR-AMB-04",
    "name": "Ambala Bharat Gas",
    "location": "Ambala",
    "distance": 1.5,
    "price": 900,
    "availability": false,
    "stockCount": 0,
    "lastUpdated": "2026-03-25T10:45:00.000Z",
    "latitude": 30.3762,
    "longitude": 76.7881,
    "state": "Haryana",
    "city": "Ambala"
  },
  {
    "id": "hr-roh-005",
    "branchCode": "HR-ROH-05",
    "name": "Rohtak Gas Traders",
    "location": "Rohtak",
    "distance": 5.2,
    "price": 895,
    "availability": true,
    "stockCount": 30,
    "lastUpdated": "2026-03-25T11:00:00.000Z",
    "latitude": 28.9015,
    "longitude": 76.6036,
    "state": "Haryana",
    "city": "Rohtak"
  },
  {
    "id": "hp-shi-001",
    "branchCode": "HP-SHI-01",
    "name": "Shimla Heights Gas",
    "location": "Shimla",
    "distance": 4,
    "price": 940,
    "availability": true,
    "stockCount": 25,
    "lastUpdated": "2026-03-25T07:00:00.000Z",
    "latitude": 31.1018,
    "longitude": 77.1734,
    "state": "Himachal Pradesh",
    "city": "Shimla"
  },
  {
    "id": "hp-man-002",
    "branchCode": "HP-MAN-02",
    "name": "Mandi Indane Service",
    "location": "Mandi",
    "distance": 2.5,
    "price": 945,
    "availability": true,
    "stockCount": 15,
    "lastUpdated": "2026-03-25T07:15:00.000Z",
    "latitude": 31.7014,
    "longitude": 76.9354,
    "state": "Himachal Pradesh",
    "city": "Mandi"
  },
  {
    "id": "hp-sol-003",
    "branchCode": "HP-SOL-03",
    "name": "Solan HP Point",
    "location": "Solan",
    "distance": 3.2,
    "price": 940,
    "availability": true,
    "stockCount": 20,
    "lastUpdated": "2026-03-25T07:30:00.000Z",
    "latitude": 30.9055,
    "longitude": 77.0967,
    "state": "Himachal Pradesh",
    "city": "Solan"
  },
  {
    "id": "hp-dha-004",
    "branchCode": "HP-DHA-04",
    "name": "Dharamshala Bharat Gas",
    "location": "Dharamshala",
    "distance": 5.1,
    "price": 950,
    "availability": false,
    "stockCount": 0,
    "lastUpdated": "2026-03-25T07:45:00.000Z",
    "latitude": 32.225,
    "longitude": 76.3294,
    "state": "Himachal Pradesh",
    "city": "Dharamshala"
  },
  {
    "id": "hp-kul-005",
    "branchCode": "HP-KUL-05",
    "name": "Kullu Valley Gas",
    "location": "Kullu",
    "distance": 6,
    "price": 955,
    "availability": true,
    "stockCount": 10,
    "lastUpdated": "2026-03-25T08:00:00.000Z",
    "latitude": 31.9639,
    "longitude": 77.1185,
    "state": "Himachal Pradesh",
    "city": "Kullu"
  },
  {
    "id": "jh-ran-001",
    "branchCode": "JH-RAN-01",
    "name": "Ranchi Central Gas",
    "location": "Ranchi",
    "distance": 2.8,
    "price": 910,
    "availability": true,
    "stockCount": 60,
    "lastUpdated": "2026-03-25T08:30:00.000Z",
    "latitude": 23.3451,
    "longitude": 85.3156,
    "state": "Jharkhand",
    "city": "Ranchi"
  },
  {
    "id": "jh-jam-002",
    "branchCode": "JH-JAM-02",
    "name": "Jamshedpur Indane",
    "location": "Jamshedpur",
    "distance": 3.5,
    "price": 910,
    "availability": true,
    "stockCount": 45,
    "lastUpdated": "2026-03-25T08:45:00.000Z",
    "latitude": 22.8146,
    "longitude": 86.2049,
    "state": "Jharkhand",
    "city": "Jamshedpur"
  },
  {
    "id": "jh-dha-003",
    "branchCode": "JH-DHA-03",
    "name": "Dhanbad HP Agency",
    "location": "Dhanbad",
    "distance": 4.1,
    "price": 915,
    "availability": false,
    "stockCount": 0,
    "lastUpdated": "2026-03-25T09:00:00.000Z",
    "latitude": 23.7957,
    "longitude": 86.4344,
    "state": "Jharkhand",
    "city": "Dhanbad"
  },
  {
    "id": "jh-bok-004",
    "branchCode": "JH-BOK-04",
    "name": "Bokaro Bharat Gas",
    "location": "Bokaro",
    "distance": 1.9,
    "price": 912,
    "availability": true,
    "stockCount": 35,
    "lastUpdated": "2026-03-25T09:15:00.000Z",
    "latitude": 23.6683,
    "longitude": 86.1461,
    "state": "Jharkhand",
    "city": "Bokaro"
  },
  {
    "id": "jh-haz-005",
    "branchCode": "JH-HAZ-05",
    "name": "Hazaribagh Gas Co",
    "location": "Hazaribagh",
    "distance": 5.5,
    "price": 920,
    "availability": true,
    "stockCount": 20,
    "lastUpdated": "2026-03-25T09:30:00.000Z",
    "latitude": 24.0046,
    "longitude": 85.3711,
    "state": "Jharkhand",
    "city": "Hazaribagh"
  },
  {
    "id": "ka-ben-001",
    "branchCode": "KA-BEN-01",
    "name": "Bengaluru IT Gas Hub",
    "location": "Bengaluru",
    "distance": 1.5,
    "price": 895,
    "availability": true,
    "stockCount": 150,
    "lastUpdated": "2026-03-25T10:00:00.000Z",
    "latitude": 12.9756,
    "longitude": 77.5926,
    "state": "Karnataka",
    "city": "Bengaluru"
  },
  {
    "id": "ka-mys-002",
    "branchCode": "KA-MYS-02",
    "name": "Mysuru Indane",
    "location": "Mysuru",
    "distance": 3,
    "price": 890,
    "availability": true,
    "stockCount": 45,
    "lastUpdated": "2026-03-25T10:15:00.000Z",
    "latitude": 12.2998,
    "longitude": 76.6314,
    "state": "Karnataka",
    "city": "Mysuru"
  },
  {
    "id": "ka-man-003",
    "branchCode": "KA-MAN-03",
    "name": "Mangaluru HP Point",
    "location": "Mangaluru",
    "distance": 2.2,
    "price": 895,
    "availability": true,
    "stockCount": 30,
    "lastUpdated": "2026-03-25T10:30:00.000Z",
    "latitude": 12.9161,
    "longitude": 74.857,
    "state": "Karnataka",
    "city": "Mangaluru"
  },
  {
    "id": "ka-hub-004",
    "branchCode": "KA-HUB-04",
    "name": "Hubballi Bharat Gas",
    "location": "Hubballi",
    "distance": 4.5,
    "price": 892,
    "availability": false,
    "stockCount": 0,
    "lastUpdated": "2026-03-25T10:45:00.000Z",
    "latitude": 15.3617,
    "longitude": 75.116,
    "state": "Karnataka",
    "city": "Hubballi"
  },
  {
    "id": "ka-bel-005",
    "branchCode": "KA-BEL-05",
    "name": "Belagavi Gas Services",
    "location": "Belagavi",
    "distance": 5.8,
    "price": 898,
    "availability": true,
    "stockCount": 25,
    "lastUpdated": "2026-03-25T11:00:00.000Z",
    "latitude": 15.8467,
    "longitude": 74.4977,
    "state": "Karnataka",
    "city": "Belagavi"
  },
  {
    "id": "kl-thi-001",
    "branchCode": "KL-THI-01",
    "name": "Trivandrum South Gas",
    "location": "Thiruvananthapuram",
    "distance": 2.1,
    "price": 905,
    "availability": true,
    "stockCount": 55,
    "lastUpdated": "2026-03-25T09:00:00.000Z",
    "latitude": 8.5201,
    "longitude": 76.9446,
    "state": "Kerala",
    "city": "Thiruvananthapuram"
  },
  {
    "id": "kl-koc-002",
    "branchCode": "KL-KOC-02",
    "name": "Kochi Indane Hub",
    "location": "Kochi",
    "distance": 1.8,
    "price": 905,
    "availability": true,
    "stockCount": 70,
    "lastUpdated": "2026-03-25T09:15:00.000Z",
    "latitude": 9.9292,
    "longitude": 76.2753,
    "state": "Kerala",
    "city": "Kochi"
  },
  {
    "id": "kl-koz-003",
    "branchCode": "KL-KOZ-03",
    "name": "Kozhikode HP Agency",
    "location": "Kozhikode",
    "distance": 3.4,
    "price": 910,
    "availability": false,
    "stockCount": 0,
    "lastUpdated": "2026-03-25T09:30:00.000Z",
    "latitude": 11.2648,
    "longitude": 75.7714,
    "state": "Kerala",
    "city": "Kozhikode"
  },
  {
    "id": "kl-thr-004",
    "branchCode": "KL-THR-04",
    "name": "Thrissur Bharat Gas",
    "location": "Thrissur",
    "distance": 4,
    "price": 908,
    "availability": true,
    "stockCount": 40,
    "lastUpdated": "2026-03-25T09:45:00.000Z",
    "latitude": 10.5266,
    "longitude": 76.2174,
    "state": "Kerala",
    "city": "Thrissur"
  },
  {
    "id": "kl-kol-005",
    "branchCode": "KL-KOL-05",
    "name": "Kollam Gas Point",
    "location": "Kollam",
    "distance": 2.9,
    "price": 910,
    "availability": true,
    "stockCount": 25,
    "lastUpdated": "2026-03-25T10:00:00.000Z",
    "latitude": 8.8892,
    "longitude": 76.6071,
    "state": "Kerala",
    "city": "Kollam"
  },
  {
    "id": "mp-bho-001",
    "branchCode": "MP-BHO-01",
    "name": "Bhopal Lake Gas",
    "location": "Bhopal",
    "distance": 2.5,
    "price": 915,
    "availability": true,
    "stockCount": 65,
    "lastUpdated": "2026-03-25T08:00:00.000Z",
    "latitude": 23.2569,
    "longitude": 77.4116,
    "state": "Madhya Pradesh",
    "city": "Bhopal"
  },
  {
    "id": "mp-ind-002",
    "branchCode": "MP-IND-02",
    "name": "Indore Indane",
    "location": "Indore",
    "distance": 1.9,
    "price": 910,
    "availability": true,
    "stockCount": 85,
    "lastUpdated": "2026-03-25T08:15:00.000Z",
    "latitude": 22.7216,
    "longitude": 75.8607,
    "state": "Madhya Pradesh",
    "city": "Indore"
  },
  {
    "id": "mp-gwa-003",
    "branchCode": "MP-GWA-03",
    "name": "Gwalior HP Service",
    "location": "Gwalior",
    "distance": 4.2,
    "price": 915,
    "availability": false,
    "stockCount": 0,
    "lastUpdated": "2026-03-25T08:30:00.000Z",
    "latitude": 26.2123,
    "longitude": 78.1748,
    "state": "Madhya Pradesh",
    "city": "Gwalior"
  },
  {
    "id": "mp-jab-004",
    "branchCode": "MP-JAB-04",
    "name": "Jabalpur Bharat Gas",
    "location": "Jabalpur",
    "distance": 3.7,
    "price": 920,
    "availability": true,
    "stockCount": 45,
    "lastUpdated": "2026-03-25T08:45:00.000Z",
    "latitude": 23.1815,
    "longitude": 79.9854,
    "state": "Madhya Pradesh",
    "city": "Jabalpur"
  },
  {
    "id": "mp-ujj-005",
    "branchCode": "MP-UJJ-05",
    "name": "Ujjain Gas Depot",
    "location": "Ujjain",
    "distance": 5,
    "price": 925,
    "availability": true,
    "stockCount": 20,
    "lastUpdated": "2026-03-25T09:00:00.000Z",
    "latitude": 23.1745,
    "longitude": 75.7905,
    "state": "Madhya Pradesh",
    "city": "Ujjain"
  },
  {
    "id": "mh-mum-001",
    "branchCode": "MH-MUM-01",
    "name": "Mumbai Metro Gas",
    "location": "Mumbai",
    "distance": 1,
    "price": 880,
    "availability": true,
    "stockCount": 200,
    "lastUpdated": "2026-03-25T09:00:00.000Z",
    "latitude": 19.067,
    "longitude": 72.8777,
    "state": "Maharashtra",
    "city": "Mumbai"
  },
  {
    "id": "mh-pun-002",
    "branchCode": "MH-PUN-02",
    "name": "Pune Indane Point",
    "location": "Pune",
    "distance": 2.4,
    "price": 885,
    "availability": true,
    "stockCount": 110,
    "lastUpdated": "2026-03-25T09:15:00.000Z",
    "latitude": 18.5284,
    "longitude": 73.8517,
    "state": "Maharashtra",
    "city": "Pune"
  },
  {
    "id": "mh-nag-003",
    "branchCode": "MH-NAG-03",
    "name": "Nagpur HP Center",
    "location": "Nagpur",
    "distance": 3.5,
    "price": 890,
    "availability": true,
    "stockCount": 60,
    "lastUpdated": "2026-03-25T09:30:00.000Z",
    "latitude": 21.1428,
    "longitude": 79.0792,
    "state": "Maharashtra",
    "city": "Nagpur"
  },
  {
    "id": "mh-nas-004",
    "branchCode": "MH-NAS-04",
    "name": "Nashik Bharat Gas",
    "location": "Nashik",
    "distance": 4.1,
    "price": 888,
    "availability": false,
    "stockCount": 0,
    "lastUpdated": "2026-03-25T09:45:00.000Z",
    "latitude": 19.9925,
    "longitude": 73.7928,
    "state": "Maharashtra",
    "city": "Nashik"
  },
  {
    "id": "mh-aur-005",
    "branchCode": "MH-AUR-05",
    "name": "Aurangabad Gas",
    "location": "Aurangabad",
    "distance": 2.9,
    "price": 895,
    "availability": true,
    "stockCount": 45,
    "lastUpdated": "2026-03-25T10:00:00.000Z",
    "latitude": 19.8682,
    "longitude": 75.3363,
    "state": "Maharashtra",
    "city": "Aurangabad"
  },
  {
    "id": "mn-imp-001",
    "branchCode": "MN-IMP-01",
    "name": "Imphal Central Gas",
    "location": "Imphal",
    "distance": 2,
    "price": 960,
    "availability": true,
    "stockCount": 35,
    "lastUpdated": "2026-03-25T06:30:00.000Z",
    "latitude": 24.808,
    "longitude": 93.9308,
    "state": "Manipur",
    "city": "Imphal"
  },
  {
    "id": "mn-chu-002",
    "branchCode": "MN-CHU-02",
    "name": "Churachandpur Indane",
    "location": "Churachandpur",
    "distance": 4.5,
    "price": 965,
    "availability": true,
    "stockCount": 15,
    "lastUpdated": "2026-03-25T06:45:00.000Z",
    "latitude": 24.3363,
    "longitude": 93.6863,
    "state": "Manipur",
    "city": "Churachandpur"
  },
  {
    "id": "mn-tho-003",
    "branchCode": "MN-THO-03",
    "name": "Thoubal HP Gas",
    "location": "Thoubal",
    "distance": 3.1,
    "price": 960,
    "availability": false,
    "stockCount": 0,
    "lastUpdated": "2026-03-25T07:00:00.000Z",
    "latitude": 24.631,
    "longitude": 94.0111,
    "state": "Manipur",
    "city": "Thoubal"
  },
  {
    "id": "mn-bis-004",
    "branchCode": "MN-BIS-04",
    "name": "Bishnupur Bharat Gas",
    "location": "Bishnupur",
    "distance": 5.2,
    "price": 970,
    "availability": true,
    "stockCount": 10,
    "lastUpdated": "2026-03-25T07:15:00.000Z",
    "latitude": 24.6321,
    "longitude": 93.7738,
    "state": "Manipur",
    "city": "Bishnupur"
  },
  {
    "id": "mn-ukh-005",
    "branchCode": "MN-UKH-05",
    "name": "Ukhrul Hill Gas",
    "location": "Ukhrul",
    "distance": 6.8,
    "price": 975,
    "availability": true,
    "stockCount": 8,
    "lastUpdated": "2026-03-25T07:30:00.000Z",
    "latitude": 25.1098,
    "longitude": 94.3657,
    "state": "Manipur",
    "city": "Ukhrul"
  },
  {
    "id": "ml-shi-001",
    "branchCode": "ML-SHI-01",
    "name": "Shillong Peak Gas",
    "location": "Shillong",
    "distance": 1.5,
    "price": 950,
    "availability": true,
    "stockCount": 40,
    "lastUpdated": "2026-03-25T07:00:00.000Z",
    "latitude": 25.5798,
    "longitude": 91.8863,
    "state": "Meghalaya",
    "city": "Shillong"
  },
  {
    "id": "ml-tur-002",
    "branchCode": "ML-TUR-02",
    "name": "Tura Indane Agency",
    "location": "Tura",
    "distance": 3.2,
    "price": 955,
    "availability": true,
    "stockCount": 20,
    "lastUpdated": "2026-03-25T07:15:00.000Z",
    "latitude": 25.5128,
    "longitude": 90.2097,
    "state": "Meghalaya",
    "city": "Tura"
  },
  {
    "id": "ml-non-003",
    "branchCode": "ML-NON-03",
    "name": "Nongpoh HP Point",
    "location": "Nongpoh",
    "distance": 2.8,
    "price": 950,
    "availability": false,
    "stockCount": 0,
    "lastUpdated": "2026-03-25T07:30:00.000Z",
    "latitude": 25.9027,
    "longitude": 91.8679,
    "state": "Meghalaya",
    "city": "Nongpoh"
  },
  {
    "id": "ml-jow-004",
    "branchCode": "ML-JOW-04",
    "name": "Jowai Bharat Gas",
    "location": "Jowai",
    "distance": 4.1,
    "price": 960,
    "availability": true,
    "stockCount": 15,
    "lastUpdated": "2026-03-25T07:45:00.000Z",
    "latitude": 25.4566,
    "longitude": 92.2021,
    "state": "Meghalaya",
    "city": "Jowai"
  },
  {
    "id": "ml-che-005",
    "branchCode": "ML-CHE-05",
    "name": "Cherrapunji Gas",
    "location": "Cherrapunji",
    "distance": 5.5,
    "price": 965,
    "availability": true,
    "stockCount": 12,
    "lastUpdated": "2026-03-25T08:00:00.000Z",
    "latitude": 25.2682,
    "longitude": 91.721,
    "state": "Meghalaya",
    "city": "Cherrapunji"
  },
  {
    "id": "mz-aiz-001",
    "branchCode": "MZ-AIZ-01",
    "name": "Aizawl Indane Hub",
    "location": "Aizawl",
    "distance": 2.2,
    "price": 970,
    "availability": true,
    "stockCount": 30,
    "lastUpdated": "2026-03-25T06:00:00.000Z",
    "latitude": 23.7321,
    "longitude": 92.7196,
    "state": "Mizoram",
    "city": "Aizawl"
  },
  {
    "id": "mz-lun-002",
    "branchCode": "MZ-LUN-02",
    "name": "Lunglei Gas Agency",
    "location": "Lunglei",
    "distance": 4,
    "price": 975,
    "availability": true,
    "stockCount": 18,
    "lastUpdated": "2026-03-25T06:15:00.000Z",
    "latitude": 22.8895,
    "longitude": 92.7425,
    "state": "Mizoram",
    "city": "Lunglei"
  },
  {
    "id": "mz-sai-003",
    "branchCode": "MZ-SAI-03",
    "name": "Saiha HP Point",
    "location": "Saiha",
    "distance": 5.1,
    "price": 980,
    "availability": false,
    "stockCount": 0,
    "lastUpdated": "2026-03-25T06:30:00.000Z",
    "latitude": 22.4998,
    "longitude": 92.9754,
    "state": "Mizoram",
    "city": "Saiha"
  },
  {
    "id": "mz-cha-004",
    "branchCode": "MZ-CHA-04",
    "name": "Champhai Bharat Gas",
    "location": "Champhai",
    "distance": 3.8,
    "price": 975,
    "availability": true,
    "stockCount": 12,
    "lastUpdated": "2026-03-25T06:45:00.000Z",
    "latitude": 23.4651,
    "longitude": 93.3332,
    "state": "Mizoram",
    "city": "Champhai"
  },
  {
    "id": "mz-ser-005",
    "branchCode": "MZ-SER-05",
    "name": "Serchhip Gas Depot",
    "location": "Serchhip",
    "distance": 6.2,
    "price": 985,
    "availability": true,
    "stockCount": 10,
    "lastUpdated": "2026-03-25T07:00:00.000Z",
    "latitude": 23.2978,
    "longitude": 92.852,
    "state": "Mizoram",
    "city": "Serchhip"
  },
  {
    "id": "nl-koh-001",
    "branchCode": "NL-KOH-01",
    "name": "Kohima City Gas",
    "location": "Kohima",
    "distance": 2.5,
    "price": 965,
    "availability": true,
    "stockCount": 28,
    "lastUpdated": "2026-03-25T06:30:00.000Z",
    "latitude": 25.6841,
    "longitude": 94.1076,
    "state": "Nagaland",
    "city": "Kohima"
  },
  {
    "id": "nl-dim-002",
    "branchCode": "NL-DIM-02",
    "name": "Dimapur Indane",
    "location": "Dimapur",
    "distance": 1.8,
    "price": 960,
    "availability": true,
    "stockCount": 45,
    "lastUpdated": "2026-03-25T06:45:00.000Z",
    "latitude": 25.9151,
    "longitude": 93.7226,
    "state": "Nagaland",
    "city": "Dimapur"
  },
  {
    "id": "nl-mok-003",
    "branchCode": "NL-MOK-03",
    "name": "Mokokchung HP",
    "location": "Mokokchung",
    "distance": 4.2,
    "price": 970,
    "availability": false,
    "stockCount": 0,
    "lastUpdated": "2026-03-25T07:00:00.000Z",
    "latitude": 26.3298,
    "longitude": 94.525,
    "state": "Nagaland",
    "city": "Mokokchung"
  },
  {
    "id": "nl-tue-004",
    "branchCode": "NL-TUE-04",
    "name": "Tuensang Bharat Gas",
    "location": "Tuensang",
    "distance": 5.8,
    "price": 975,
    "availability": true,
    "stockCount": 10,
    "lastUpdated": "2026-03-25T07:15:00.000Z",
    "latitude": 26.275,
    "longitude": 94.8286,
    "state": "Nagaland",
    "city": "Tuensang"
  },
  {
    "id": "nl-wok-005",
    "branchCode": "NL-WOK-05",
    "name": "Wokha Gas Agency",
    "location": "Wokha",
    "distance": 3.5,
    "price": 970,
    "availability": true,
    "stockCount": 15,
    "lastUpdated": "2026-03-25T07:30:00.000Z",
    "latitude": 26.102,
    "longitude": 94.2605,
    "state": "Nagaland",
    "city": "Wokha"
  },
  {
    "id": "od-bhu-001",
    "branchCode": "OD-BHU-01",
    "name": "Bhubaneswar Central Gas",
    "location": "Bhubaneswar",
    "distance": 2,
    "price": 905,
    "availability": true,
    "stockCount": 65,
    "lastUpdated": "2026-03-25T08:00:00.000Z",
    "latitude": 20.2871,
    "longitude": 85.8295,
    "state": "Odisha",
    "city": "Bhubaneswar"
  },
  {
    "id": "od-cut-002",
    "branchCode": "OD-CUT-02",
    "name": "Cuttack Indane",
    "location": "Cuttack",
    "distance": 3.2,
    "price": 905,
    "availability": true,
    "stockCount": 40,
    "lastUpdated": "2026-03-25T08:15:00.000Z",
    "latitude": 20.4695,
    "longitude": 85.8918,
    "state": "Odisha",
    "city": "Cuttack"
  },
  {
    "id": "od-rou-003",
    "branchCode": "OD-ROU-03",
    "name": "Rourkela HP Gas",
    "location": "Rourkela",
    "distance": 4.5,
    "price": 910,
    "availability": false,
    "stockCount": 0,
    "lastUpdated": "2026-03-25T08:30:00.000Z",
    "latitude": 22.2634,
    "longitude": 84.8496,
    "state": "Odisha",
    "city": "Rourkela"
  },
  {
    "id": "od-ber-004",
    "branchCode": "OD-BER-04",
    "name": "Berhampur Bharat Gas",
    "location": "Berhampur",
    "distance": 2.8,
    "price": 908,
    "availability": true,
    "stockCount": 35,
    "lastUpdated": "2026-03-25T08:45:00.000Z",
    "latitude": 19.3159,
    "longitude": 84.8041,
    "state": "Odisha",
    "city": "Berhampur"
  },
  {
    "id": "od-sam-005",
    "branchCode": "OD-SAM-05",
    "name": "Sambalpur Gas Hub",
    "location": "Sambalpur",
    "distance": 3.9,
    "price": 912,
    "availability": true,
    "stockCount": 25,
    "lastUpdated": "2026-03-25T09:00:00.000Z",
    "latitude": 21.4709,
    "longitude": 83.9892,
    "state": "Odisha",
    "city": "Sambalpur"
  },
  {
    "id": "pb-lud-001",
    "branchCode": "PB-LUD-01",
    "name": "Ludhiana Auto Gas",
    "location": "Ludhiana",
    "distance": 1.5,
    "price": 900,
    "availability": true,
    "stockCount": 85,
    "lastUpdated": "2026-03-25T10:00:00.000Z",
    "latitude": 30.8959,
    "longitude": 75.8533,
    "state": "Punjab",
    "city": "Ludhiana"
  },
  {
    "id": "pb-amr-002",
    "branchCode": "PB-AMR-02",
    "name": "Amritsar Indane",
    "location": "Amritsar",
    "distance": 2.9,
    "price": 905,
    "availability": true,
    "stockCount": 50,
    "lastUpdated": "2026-03-25T10:15:00.000Z",
    "latitude": 31.631,
    "longitude": 74.8763,
    "state": "Punjab",
    "city": "Amritsar"
  },
  {
    "id": "pb-jal-003",
    "branchCode": "PB-JAL-03",
    "name": "Jalandhar HP Point",
    "location": "Jalandhar",
    "distance": 3.4,
    "price": 900,
    "availability": true,
    "stockCount": 45,
    "lastUpdated": "2026-03-25T10:30:00.000Z",
    "latitude": 31.33,
    "longitude": 75.5822,
    "state": "Punjab",
    "city": "Jalandhar"
  },
  {
    "id": "pb-pat-004",
    "branchCode": "PB-PAT-04",
    "name": "Patiala Bharat Gas",
    "location": "Patiala",
    "distance": 4.1,
    "price": 905,
    "availability": false,
    "stockCount": 0,
    "lastUpdated": "2026-03-25T10:45:00.000Z",
    "latitude": 30.3338,
    "longitude": 76.3879,
    "state": "Punjab",
    "city": "Patiala"
  },
  {
    "id": "pb-bat-005",
    "branchCode": "PB-BAT-05",
    "name": "Bathinda Gas Agency",
    "location": "Bathinda",
    "distance": 5,
    "price": 910,
    "availability": true,
    "stockCount": 30,
    "lastUpdated": "2026-03-25T11:00:00.000Z",
    "latitude": 30.211,
    "longitude": 74.9395,
    "state": "Punjab",
    "city": "Bathinda"
  },
  {
    "id": "rj-jai-001",
    "branchCode": "RJ-JAI-01",
    "name": "Jaipur Pink City Gas",
    "location": "Jaipur",
    "distance": 2.2,
    "price": 895,
    "availability": true,
    "stockCount": 90,
    "lastUpdated": "2026-03-25T09:30:00.000Z",
    "latitude": 26.9154,
    "longitude": 75.7873,
    "state": "Rajasthan",
    "city": "Jaipur"
  },
  {
    "id": "rj-jod-002",
    "branchCode": "RJ-JOD-02",
    "name": "Jodhpur Indane Hub",
    "location": "Jodhpur",
    "distance": 3.5,
    "price": 900,
    "availability": true,
    "stockCount": 55,
    "lastUpdated": "2026-03-25T09:45:00.000Z",
    "latitude": 26.2339,
    "longitude": 73.0173,
    "state": "Rajasthan",
    "city": "Jodhpur"
  },
  {
    "id": "rj-uda-003",
    "branchCode": "RJ-UDA-03",
    "name": "Udaipur HP Center",
    "location": "Udaipur",
    "distance": 2.8,
    "price": 898,
    "availability": false,
    "stockCount": 0,
    "lastUpdated": "2026-03-25T10:00:00.000Z",
    "latitude": 24.5954,
    "longitude": 73.7115,
    "state": "Rajasthan",
    "city": "Udaipur"
  },
  {
    "id": "rj-kot-004",
    "branchCode": "RJ-KOT-04",
    "name": "Kota Bharat Gas",
    "location": "Kota",
    "distance": 4,
    "price": 895,
    "availability": true,
    "stockCount": 40,
    "lastUpdated": "2026-03-25T10:15:00.000Z",
    "latitude": 25.2138,
    "longitude": 75.8668,
    "state": "Rajasthan",
    "city": "Kota"
  },
  {
    "id": "rj-ajm-005",
    "branchCode": "RJ-AJM-05",
    "name": "Ajmer Gas Depot",
    "location": "Ajmer",
    "distance": 3.1,
    "price": 905,
    "availability": true,
    "stockCount": 35,
    "lastUpdated": "2026-03-25T10:30:00.000Z",
    "latitude": 26.4469,
    "longitude": 74.6469,
    "state": "Rajasthan",
    "city": "Ajmer"
  },
  {
    "id": "sk-gan-001",
    "branchCode": "SK-GAN-01",
    "name": "Gangtok Hills Gas",
    "location": "Gangtok",
    "distance": 1.2,
    "price": 980,
    "availability": true,
    "stockCount": 25,
    "lastUpdated": "2026-03-25T06:00:00.000Z",
    "latitude": 27.3479,
    "longitude": 88.6025,
    "state": "Sikkim",
    "city": "Gangtok"
  },
  {
    "id": "sk-nam-002",
    "branchCode": "SK-NAM-02",
    "name": "Namchi Indane",
    "location": "Namchi",
    "distance": 3.5,
    "price": 985,
    "availability": true,
    "stockCount": 15,
    "lastUpdated": "2026-03-25T06:15:00.000Z",
    "latitude": 27.1592,
    "longitude": 88.3539,
    "state": "Sikkim",
    "city": "Namchi"
  },
  {
    "id": "sk-man-003",
    "branchCode": "SK-MAN-03",
    "name": "Mangan HP Service",
    "location": "Mangan",
    "distance": 5,
    "price": 990,
    "availability": false,
    "stockCount": 0,
    "lastUpdated": "2026-03-25T06:30:00.000Z",
    "latitude": 27.5187,
    "longitude": 88.5333,
    "state": "Sikkim",
    "city": "Mangan"
  },
  {
    "id": "sk-gya-004",
    "branchCode": "SK-GYA-04",
    "name": "Gyalshing Bharat Gas",
    "location": "Gyalshing",
    "distance": 6.1,
    "price": 995,
    "availability": true,
    "stockCount": 10,
    "lastUpdated": "2026-03-25T06:45:00.000Z",
    "latitude": 27.2987,
    "longitude": 88.2591,
    "state": "Sikkim",
    "city": "Gyalshing"
  },
  {
    "id": "sk-ran-005",
    "branchCode": "SK-RAN-05",
    "name": "Rangpo Gas Point",
    "location": "Rangpo",
    "distance": 2.8,
    "price": 980,
    "availability": true,
    "stockCount": 20,
    "lastUpdated": "2026-03-25T07:00:00.000Z",
    "latitude": 27.1842,
    "longitude": 88.5296,
    "state": "Sikkim",
    "city": "Rangpo"
  },
  {
    "id": "tn-che-001",
    "branchCode": "TN-CHE-01",
    "name": "Chennai Metro Gas",
    "location": "Chennai",
    "distance": 1.8,
    "price": 890,
    "availability": true,
    "stockCount": 160,
    "lastUpdated": "2026-03-25T09:00:00.000Z",
    "latitude": 13.0767,
    "longitude": 80.2757,
    "state": "Tamil Nadu",
    "city": "Chennai"
  },
  {
    "id": "tn-coi-002",
    "branchCode": "TN-COI-02",
    "name": "Coimbatore Indane",
    "location": "Coimbatore",
    "distance": 2.5,
    "price": 895,
    "availability": true,
    "stockCount": 85,
    "lastUpdated": "2026-03-25T09:15:00.000Z",
    "latitude": 11.0258,
    "longitude": 76.9468,
    "state": "Tamil Nadu",
    "city": "Coimbatore"
  },
  {
    "id": "tn-mad-003",
    "branchCode": "TN-MAD-03",
    "name": "Madurai HP Agency",
    "location": "Madurai",
    "distance": 3.1,
    "price": 890,
    "availability": false,
    "stockCount": 0,
    "lastUpdated": "2026-03-25T09:30:00.000Z",
    "latitude": 9.9332,
    "longitude": 78.1248,
    "state": "Tamil Nadu",
    "city": "Madurai"
  },
  {
    "id": "tn-tir-004",
    "branchCode": "TN-TIR-04",
    "name": "Trichy Bharat Gas",
    "location": "Tiruchirappalli",
    "distance": 4,
    "price": 895,
    "availability": true,
    "stockCount": 45,
    "lastUpdated": "2026-03-25T09:45:00.000Z",
    "latitude": 10.8005,
    "longitude": 78.6967,
    "state": "Tamil Nadu",
    "city": "Tiruchirappalli"
  },
  {
    "id": "tn-sal-005",
    "branchCode": "TN-SAL-05",
    "name": "Salem Gas Network",
    "location": "Salem",
    "distance": 2.9,
    "price": 898,
    "availability": true,
    "stockCount": 35,
    "lastUpdated": "2026-03-25T10:00:00.000Z",
    "latitude": 11.6733,
    "longitude": 78.148,
    "state": "Tamil Nadu",
    "city": "Salem"
  },
  {
    "id": "tg-hyd-001",
    "branchCode": "TG-HYD-MAD-01",
    "name": "Madhapur Gas World",
    "location": "Madhapur",
    "distance": 3.1,
    "price": 890,
    "availability": true,
    "stockCount": 24,
    "lastUpdated": "2026-03-24T06:00:00.000Z",
    "latitude": 17.4403,
    "longitude": 78.3915,
    "state": "Telangana",
    "city": "Hyderabad"
  },
  {
    "id": "tg-war-002",
    "branchCode": "TG-WAR-02",
    "name": "Warangal Indane",
    "location": "Warangal",
    "distance": 2.5,
    "price": 895,
    "availability": true,
    "stockCount": 40,
    "lastUpdated": "2026-03-25T09:15:00.000Z",
    "latitude": 17.9719,
    "longitude": 79.5921,
    "state": "Telangana",
    "city": "Warangal"
  },
  {
    "id": "tg-niz-003",
    "branchCode": "TG-NIZ-03",
    "name": "Nizamabad HP Point",
    "location": "Nizamabad",
    "distance": 4.1,
    "price": 890,
    "availability": false,
    "stockCount": 0,
    "lastUpdated": "2026-03-25T09:30:00.000Z",
    "latitude": 18.6815,
    "longitude": 78.1031,
    "state": "Telangana",
    "city": "Nizamabad"
  },
  {
    "id": "tg-kar-004",
    "branchCode": "TG-KAR-04",
    "name": "Karimnagar Bharat Gas",
    "location": "Karimnagar",
    "distance": 3.8,
    "price": 895,
    "availability": true,
    "stockCount": 30,
    "lastUpdated": "2026-03-25T09:45:00.000Z",
    "latitude": 18.4356,
    "longitude": 79.1268,
    "state": "Telangana",
    "city": "Karimnagar"
  },
  {
    "id": "tg-kha-005",
    "branchCode": "TG-KHA-05",
    "name": "Khammam Gas Services",
    "location": "Khammam",
    "distance": 5.2,
    "price": 892,
    "availability": true,
    "stockCount": 20,
    "lastUpdated": "2026-03-25T10:00:00.000Z",
    "latitude": 17.2373,
    "longitude": 80.1544,
    "state": "Telangana",
    "city": "Khammam"
  },
  {
    "id": "tr-aga-001",
    "branchCode": "TR-AGA-01",
    "name": "Agartala City Gas",
    "location": "Agartala",
    "distance": 1.5,
    "price": 955,
    "availability": true,
    "stockCount": 45,
    "lastUpdated": "2026-03-25T06:30:00.000Z",
    "latitude": 23.8255,
    "longitude": 91.2878,
    "state": "Tripura",
    "city": "Agartala"
  },
  {
    "id": "tr-dha-002",
    "branchCode": "TR-DHA-02",
    "name": "Dharmanagar Indane",
    "location": "Dharmanagar",
    "distance": 3,
    "price": 960,
    "availability": true,
    "stockCount": 20,
    "lastUpdated": "2026-03-25T06:45:00.000Z",
    "latitude": 24.3647,
    "longitude": 92.1687,
    "state": "Tripura",
    "city": "Dharmanagar"
  },
  {
    "id": "tr-uda-003",
    "branchCode": "TR-UDA-03",
    "name": "Udaipur HP Center",
    "location": "Udaipur",
    "distance": 4.5,
    "price": 955,
    "availability": false,
    "stockCount": 0,
    "lastUpdated": "2026-03-25T07:00:00.000Z",
    "latitude": 23.525,
    "longitude": 91.487,
    "state": "Tripura",
    "city": "Udaipur"
  },
  {
    "id": "tr-kai-004",
    "branchCode": "TR-KAI-04",
    "name": "Kailashahar Bharat Gas",
    "location": "Kailashahar",
    "distance": 5.2,
    "price": 965,
    "availability": true,
    "stockCount": 15,
    "lastUpdated": "2026-03-25T07:15:00.000Z",
    "latitude": 24.3328,
    "longitude": 92.0189,
    "state": "Tripura",
    "city": "Kailashahar"
  },
  {
    "id": "tr-amb-005",
    "branchCode": "TR-AMB-05",
    "name": "Ambassa Gas Hub",
    "location": "Ambassa",
    "distance": 6.8,
    "price": 970,
    "availability": true,
    "stockCount": 10,
    "lastUpdated": "2026-03-25T07:30:00.000Z",
    "latitude": 23.933,
    "longitude": 91.8644,
    "state": "Tripura",
    "city": "Ambassa"
  },
  {
    "id": "up-luc-001",
    "branchCode": "UP-LUC-01",
    "name": "Lucknow Nawab Gas",
    "location": "Lucknow",
    "distance": 2.2,
    "price": 905,
    "availability": true,
    "stockCount": 110,
    "lastUpdated": "2026-03-25T09:00:00.000Z",
    "latitude": 26.8377,
    "longitude": 80.9412,
    "state": "Uttar Pradesh",
    "city": "Lucknow"
  },
  {
    "id": "up-kan-002",
    "branchCode": "UP-KAN-02",
    "name": "Kanpur Indane Agency",
    "location": "Kanpur",
    "distance": 3.8,
    "price": 900,
    "availability": true,
    "stockCount": 80,
    "lastUpdated": "2026-03-25T09:15:00.000Z",
    "latitude": 26.4579,
    "longitude": 80.3409,
    "state": "Uttar Pradesh",
    "city": "Kanpur"
  },
  {
    "id": "up-var-003",
    "branchCode": "UP-VAR-03",
    "name": "Varanasi HP Point",
    "location": "Varanasi",
    "distance": 2.5,
    "price": 910,
    "availability": false,
    "stockCount": 0,
    "lastUpdated": "2026-03-25T09:30:00.000Z",
    "latitude": 25.3126,
    "longitude": 82.9819,
    "state": "Uttar Pradesh",
    "city": "Varanasi"
  },
  {
    "id": "up-agr-004",
    "branchCode": "UP-AGR-04",
    "name": "Agra Bharat Gas",
    "location": "Agra",
    "distance": 4.1,
    "price": 905,
    "availability": true,
    "stockCount": 65,
    "lastUpdated": "2026-03-25T09:45:00.000Z",
    "latitude": 27.1847,
    "longitude": 78.0061,
    "state": "Uttar Pradesh",
    "city": "Agra"
  },
  {
    "id": "up-mee-005",
    "branchCode": "UP-MEE-05",
    "name": "Meerut City Gas",
    "location": "Meerut",
    "distance": 3.3,
    "price": 908,
    "availability": true,
    "stockCount": 45,
    "lastUpdated": "2026-03-25T10:00:00.000Z",
    "latitude": 28.9745,
    "longitude": 77.7054,
    "state": "Uttar Pradesh",
    "city": "Meerut"
  },
  {
    "id": "uk-deh-001",
    "branchCode": "UK-DEH-01",
    "name": "Dehradun Valley Gas",
    "location": "Dehradun",
    "distance": 2,
    "price": 930,
    "availability": true,
    "stockCount": 55,
    "lastUpdated": "2026-03-25T08:00:00.000Z",
    "latitude": 30.3165,
    "longitude": 78.0362,
    "state": "Uttarakhand",
    "city": "Dehradun"
  },
  {
    "id": "uk-har-002",
    "branchCode": "UK-HAR-02",
    "name": "Haridwar Indane",
    "location": "Haridwar",
    "distance": 3.5,
    "price": 935,
    "availability": true,
    "stockCount": 40,
    "lastUpdated": "2026-03-25T08:15:00.000Z",
    "latitude": 29.9377,
    "longitude": 78.1542,
    "state": "Uttarakhand",
    "city": "Haridwar"
  },
  {
    "id": "uk-roo-003",
    "branchCode": "UK-ROO-03",
    "name": "Roorkee HP Center",
    "location": "Roorkee",
    "distance": 2.8,
    "price": 930,
    "availability": false,
    "stockCount": 0,
    "lastUpdated": "2026-03-25T08:30:00.000Z",
    "latitude": 29.8513,
    "longitude": 77.882,
    "state": "Uttarakhand",
    "city": "Roorkee"
  },
  {
    "id": "uk-hal-004",
    "branchCode": "UK-HAL-04",
    "name": "Haldwani Bharat Gas",
    "location": "Haldwani",
    "distance": 4.5,
    "price": 940,
    "availability": true,
    "stockCount": 35,
    "lastUpdated": "2026-03-25T08:45:00.000Z",
    "latitude": 29.2263,
    "longitude": 79.522,
    "state": "Uttarakhand",
    "city": "Haldwani"
  },
  {
    "id": "uk-ris-005",
    "branchCode": "UK-RIS-05",
    "name": "Rishikesh Gas Hub",
    "location": "Rishikesh",
    "distance": 5.1,
    "price": 935,
    "availability": true,
    "stockCount": 20,
    "lastUpdated": "2026-03-25T09:00:00.000Z",
    "latitude": 30.0859,
    "longitude": 78.2746,
    "state": "Uttarakhand",
    "city": "Rishikesh"
  },
  {
    "id": "wb-kol-001",
    "branchCode": "WB-KOL-01",
    "name": "Kolkata Metro Gas",
    "location": "Kolkata",
    "distance": 1.2,
    "price": 915,
    "availability": true,
    "stockCount": 130,
    "lastUpdated": "2026-03-25T08:30:00.000Z",
    "latitude": 22.5726,
    "longitude": 88.3719,
    "state": "West Bengal",
    "city": "Kolkata"
  },
  {
    "id": "wb-asa-002",
    "branchCode": "WB-ASA-02",
    "name": "Asansol Indane",
    "location": "Asansol",
    "distance": 3,
    "price": 920,
    "availability": true,
    "stockCount": 55,
    "lastUpdated": "2026-03-25T08:45:00.000Z",
    "latitude": 23.6729,
    "longitude": 86.9614,
    "state": "West Bengal",
    "city": "Asansol"
  },
  {
    "id": "wb-sil-003",
    "branchCode": "WB-SIL-03",
    "name": "Siliguri HP Point",
    "location": "Siliguri",
    "distance": 4.2,
    "price": 925,
    "availability": false,
    "stockCount": 0,
    "lastUpdated": "2026-03-25T09:00:00.000Z",
    "latitude": 26.7261,
    "longitude": 88.3883,
    "state": "West Bengal",
    "city": "Siliguri"
  },
  {
    "id": "wb-dur-004",
    "branchCode": "WB-DUR-04",
    "name": "Durgapur Bharat Gas",
    "location": "Durgapur",
    "distance": 2.5,
    "price": 918,
    "availability": true,
    "stockCount": 60,
    "lastUpdated": "2026-03-25T09:15:00.000Z",
    "latitude": 23.5304,
    "longitude": 87.3049,
    "state": "West Bengal",
    "city": "Durgapur"
  },
  {
    "id": "wb-dar-005",
    "branchCode": "WB-DAR-05",
    "name": "Darjeeling Hills Gas",
    "location": "Darjeeling",
    "distance": 5.5,
    "price": 935,
    "availability": true,
    "stockCount": 15,
    "lastUpdated": "2026-03-25T09:30:00.000Z",
    "latitude": 27.04,
    "longitude": 88.2677,
    "state": "West Bengal",
    "city": "Darjeeling"
  }
]
